$GNRMC,092542.00,A,4846.4008666,N,00854.7249096,E,0.011,,200420,,,R,V*01
$GNGGA,092542.00,4846.4008666,N,00854.7249096,E,4,12,0.47,419.166,M,47.535,M,0.0,0000*66
$GNRMC,092542.50,A,4846.4008639,N,00854.7249134,E,0.017,,200420,,,R,V*01
$GNGGA,092542.50,4846.4008639,N,00854.7249134,E,4,12,0.47,419.164,M,47.535,M,0.0,0000*62
$GNRMC,092543.00,A,4846.4008633,N,00854.7249165,E,0.016,,200420,,,R,V*0A
$GNGGA,092543.00,4846.4008633,N,00854.7249165,E,4,12,0.47,419.163,M,47.535,M,0.0,0000*6F
$GNRMC,092543.50,A,4846.4008626,N,00854.7249190,E,0.015,,200420,,,R,V*02
$GNGGA,092543.50,4846.4008626,N,00854.7249190,E,4,12,0.47,419.164,M,47.535,M,0.0,0000*63
$GNRMC,092544.00,A,4846.4008631,N,00854.7249227,E,0.015,,200420,,,R,V*09
$GNGGA,092544.00,4846.4008631,N,00854.7249227,E,4,12,0.47,419.161,M,47.535,M,0.0,0000*6D
$GNRMC,092544.50,A,4846.4008623,N,00854.7249256,E,0.017,,200420,,,R,V*0B
$GNGGA,092544.50,4846.4008623,N,00854.7249256,E,4,12,0.48,419.159,M,47.535,M,0.0,0000*69
$GNRMC,092545.00,A,4846.4008600,N,00854.7249288,E,0.017,,200420,,,R,V*0D
$GNGGA,092545.00,4846.4008600,N,00854.7249288,E,4,12,0.48,419.157,M,47.535,M,0.0,0000*61
$GNRMC,092545.50,A,4846.4008591,N,00854.7249306,E,0.015,,200420,,,R,V*06
$GNGGA,092545.50,4846.4008591,N,00854.7249306,E,4,12,0.48,419.155,M,47.535,M,0.0,0000*6A
$GNRMC,092546.00,A,4846.4008590,N,00854.7249360,E,0.013,,200420,,,R,V*07
$GNGGA,092546.00,4846.4008590,N,00854.7249360,E,4,12,0.48,419.154,M,47.535,M,0.0,0000*6C
$GNRMC,092546.50,A,4846.4008571,N,00854.7249377,E,0.020,,200420,,,R,V*0B
$GNGGA,092546.50,4846.4008571,N,00854.7249377,E,4,12,0.48,419.151,M,47.535,M,0.0,0000*65
$GNRMC,092547.00,A,4846.4008566,N,00854.7249403,E,0.020,,200420,,,R,V*0D
$GNGGA,092547.00,4846.4008566,N,00854.7249403,E,4,12,0.48,419.149,M,47.535,M,0.0,0000*6A
$GNRMC,092547.50,A,4846.4008550,N,00854.7249424,E,0.010,,200420,,,R,V*0B
$GNGGA,092547.50,4846.4008550,N,00854.7249424,E,4,12,0.48,419.150,M,47.535,M,0.0,0000*67
$GNRMC,092548.00,A,4846.4008544,N,00854.7249474,E,0.019,,200420,,,R,V*08
$GNGGA,092548.00,4846.4008544,N,00854.7249474,E,4,12,0.48,419.150,M,47.535,M,0.0,0000*6D
$GNRMC,092548.50,A,4846.4008526,N,00854.7249500,E,0.018,,200420,,,R,V*0A
$GNGGA,092548.50,4846.4008526,N,00854.7249500,E,4,12,0.48,419.147,M,47.535,M,0.0,0000*68
$GNRMC,092549.00,A,4846.4008512,N,00854.7249513,E,0.017,,200420,,,R,V*04
$GNGGA,092549.00,4846.4008512,N,00854.7249513,E,4,12,0.48,419.140,M,47.535,M,0.0,0000*6E
$GNRMC,092549.50,A,4846.4008503,N,00854.7249550,E,0.010,,200420,,,R,V*01
$GNGGA,092549.50,4846.4008503,N,00854.7249550,E,4,12,0.48,419.134,M,47.535,M,0.0,0000*6F
$GNRMC,092550.00,A,4846.4008488,N,00854.7249571,E,0.013,,200420,,,R,V*0E
$GNGGA,092550.00,4846.4008488,N,00854.7249571,E,4,12,0.48,419.130,M,47.535,M,0.0,0000*67
$GNRMC,092550.50,A,4846.4008478,N,00854.7249592,E,0.020,,200420,,,R,V*09
$GNGGA,092550.50,4846.4008478,N,00854.7249592,E,4,12,0.48,419.126,M,47.535,M,0.0,0000*67
$GNRMC,092551.00,A,4846.4008460,N,00854.7249618,E,0.023,,200420,,,R,V*06
$GNGGA,092551.00,4846.4008460,N,00854.7249618,E,4,12,0.48,419.122,M,47.535,M,0.0,0000*6F
$GNRMC,092551.50,A,4846.4008450,N,00854.7249652,E,0.019,,200420,,,R,V*07
$GNGGA,092551.50,4846.4008450,N,00854.7249652,E,4,12,0.48,419.116,M,47.535,M,0.0,0000*60
$GNRMC,092552.00,A,4846.4008435,N,00854.7249686,E,0.018,,200420,,,R,V*0A
$GNGGA,092552.00,4846.4008435,N,00854.7249686,E,4,12,0.48,419.110,M,47.535,M,0.0,0000*6A
$GNRMC,092552.50,A,4846.4008425,N,00854.7249710,E,0.017,,200420,,,R,V*0F
$GNGGA,092552.50,4846.4008425,N,00854.7249710,E,4,12,0.49,419.106,M,47.535,M,0.0,0000*66
$GNRMC,092553.00,A,4846.4008409,N,00854.7249738,E,0.012,,200420,,,R,V*0A
$GNGGA,092553.00,4846.4008409,N,00854.7249738,E,4,12,0.49,419.099,M,47.535,M,0.0,0000*61
$GNRMC,092553.50,A,4846.4008405,N,00854.7249753,E,0.018,,200420,,,R,V*04
$GNGGA,092553.50,4846.4008405,N,00854.7249753,E,4,12,0.49,419.096,M,47.535,M,0.0,0000*6A
$GNRMC,092554.00,A,4846.4008401,N,00854.7249790,E,0.014,,200420,,,R,V*01
$GNGGA,092554.00,4846.4008401,N,00854.7249790,E,4,12,0.49,419.093,M,47.535,M,0.0,0000*66
$GNRMC,092554.50,A,4846.4008388,N,00854.7249812,E,0.014,,200420,,,R,V*07
$GNGGA,092554.50,4846.4008388,N,00854.7249812,E,4,12,0.49,419.091,M,47.535,M,0.0,0000*62
$GNRMC,092555.00,A,4846.4008374,N,00854.7249826,E,0.014,,200420,,,R,V*07
$GNGGA,092555.00,4846.4008374,N,00854.7249826,E,4,12,0.49,419.095,M,47.535,M,0.0,0000*66
$GNRMC,092555.50,A,4846.4008347,N,00854.7249843,E,0.013,,200420,,,R,V*06
$GNGGA,092555.50,4846.4008347,N,00854.7249843,E,4,12,0.49,419.097,M,47.535,M,0.0,0000*62
$GNRMC,092556.00,A,4846.4008345,N,00854.7249864,E,0.012,,200420,,,R,V*06
$GNGGA,092556.00,4846.4008345,N,00854.7249864,E,4,12,0.50,419.095,M,47.535,M,0.0,0000*69
$GNRMC,092556.50,A,4846.4008324,N,00854.7249876,E,0.014,,200420,,,R,V*01
$GNGGA,092556.50,4846.4008324,N,00854.7249876,E,4,12,0.50,419.093,M,47.535,M,0.0,0000*6E
$GNRMC,092557.00,A,4846.4008316,N,00854.7249899,E,0.016,,200420,,,R,V*07
$GNGGA,092557.00,4846.4008316,N,00854.7249899,E,4,12,0.50,419.094,M,47.535,M,0.0,0000*6D
$GNRMC,092557.50,A,4846.4008301,N,00854.7249902,E,0.017,,200420,,,R,V*06
$GNGGA,092557.50,4846.4008301,N,00854.7249902,E,4,12,0.50,419.095,M,47.535,M,0.0,0000*6C
$GNRMC,092558.00,A,4846.4008285,N,00854.7249918,E,0.011,,200420,,,R,V*0C
$GNGGA,092558.00,4846.4008285,N,00854.7249918,E,4,12,0.50,419.095,M,47.535,M,0.0,0000*60
$GNRMC,092558.50,A,4846.4008280,N,00854.7249943,E,0.010,,200420,,,R,V*03
$GNGGA,092558.50,4846.4008280,N,00854.7249943,E,4,12,0.50,419.094,M,47.535,M,0.0,0000*6F
$GNRMC,092559.00,A,4846.4008279,N,00854.7249973,E,0.012,,200420,,,R,V*00
$GNGGA,092559.00,4846.4008279,N,00854.7249973,E,4,12,0.50,419.090,M,47.535,M,0.0,0000*6A
$GNRMC,092559.50,A,4846.4008265,N,00854.7250015,E,0.017,,200420,,,R,V*0C
$GNGGA,092559.50,4846.4008265,N,00854.7250015,E,4,12,0.50,419.089,M,47.535,M,0.0,0000*6B
$GNRMC,092600.00,A,4846.4008244,N,00854.7250041,E,0.016,,200420,,,R,V*05
$GNGGA,092600.00,4846.4008244,N,00854.7250041,E,4,12,0.50,419.092,M,47.535,M,0.0,0000*69
$GNRMC,092600.50,A,4846.4008243,N,00854.7250068,E,0.016,,200420,,,R,V*0C
$GNGGA,092600.50,4846.4008243,N,00854.7250068,E,4,12,0.50,419.086,M,47.535,M,0.0,0000*65
$GNRMC,092601.00,A,4846.4008227,N,00854.7250103,E,0.018,,200420,,,R,V*08
$GNGGA,092601.00,4846.4008227,N,00854.7250103,E,4,12,0.50,419.085,M,47.535,M,0.0,0000*6C
$GNRMC,092601.50,A,4846.4008212,N,00854.7250134,E,0.008,,200420,,,R,V*0E
$GNGGA,092601.50,4846.4008212,N,00854.7250134,E,4,12,0.50,419.085,M,47.535,M,0.0,0000*6B
$GNRMC,092602.00,A,4846.4008195,N,00854.7250185,E,0.007,,200420,,,R,V*01
$GNGGA,092602.00,4846.4008195,N,00854.7250185,E,4,12,0.50,419.082,M,47.535,M,0.0,0000*6C
$GNRMC,092602.50,A,4846.4008203,N,00854.7250211,E,0.011,,200420,,,R,V*01
$GNGGA,092602.50,4846.4008203,N,00854.7250211,E,4,12,0.50,419.077,M,47.535,M,0.0,0000*61
$GNRMC,092603.00,A,4846.4008185,N,00854.7250245,E,0.016,,200420,,,R,V*0E
$GNGGA,092603.00,4846.4008185,N,00854.7250245,E,4,12,0.50,419.078,M,47.535,M,0.0,0000*66
$GNRMC,092603.50,A,4846.4008178,N,00854.7250270,E,0.012,,200420,,,R,V*0B
$GNGGA,092603.50,4846.4008178,N,00854.7250270,E,4,12,0.50,419.077,M,47.535,M,0.0,0000*68
$GNRMC,092604.00,A,4846.4008167,N,00854.7250308,E,0.009,,200420,,,R,V*03
$GNGGA,092604.00,4846.4008167,N,00854.7250308,E,4,12,0.50,419.074,M,47.535,M,0.0,0000*69
$GNRMC,092604.50,A,4846.4008163,N,00854.7250343,E,0.007,,200420,,,R,V*03
$GNGGA,092604.50,4846.4008163,N,00854.7250343,E,4,12,0.50,419.072,M,47.535,M,0.0,0000*61
$GNRMC,092605.00,A,4846.4008151,N,00854.7250389,E,0.015,,200420,,,R,V*03
$GNGGA,092605.00,4846.4008151,N,00854.7250389,E,4,12,0.50,419.073,M,47.535,M,0.0,0000*63
$GNRMC,092605.50,A,4846.4008133,N,00854.7250437,E,0.010,,200420,,,R,V*05
$GNGGA,092605.50,4846.4008133,N,00854.7250437,E,4,12,0.50,419.073,M,47.535,M,0.0,0000*60
$GNRMC,092606.00,A,4846.4008136,N,00854.7250462,E,0.005,,200420,,,R,V*02
$GNGGA,092606.00,4846.4008136,N,00854.7250462,E,4,12,0.50,419.076,M,47.535,M,0.0,0000*66
$GNRMC,092606.50,A,4846.4008130,N,00854.7250486,E,0.009,,200420,,,R,V*07
$GNGGA,092606.50,4846.4008130,N,00854.7250486,E,4,12,0.50,419.078,M,47.535,M,0.0,0000*61
$GNRMC,092607.00,A,4846.4008114,N,00854.7250519,E,0.008,,200420,,,R,V*03
$GNGGA,092607.00,4846.4008114,N,00854.7250519,E,4,12,0.50,419.077,M,47.535,M,0.0,0000*6B
$GNRMC,092607.50,A,4846.4008119,N,00854.7250548,E,0.011,,200420,,,R,V*07
$GNGGA,092607.50,4846.4008119,N,00854.7250548,E,4,12,0.50,419.079,M,47.535,M,0.0,0000*69
$GNRMC,092608.00,A,4846.4008101,N,00854.7250572,E,0.014,,200420,,,R,V*08
$GNGGA,092608.00,4846.4008101,N,00854.7250572,E,4,12,0.50,419.080,M,47.535,M,0.0,0000*65
$GNRMC,092608.50,A,4846.4008083,N,00854.7250614,E,0.015,,200420,,,R,V*04
$GNGGA,092608.50,4846.4008083,N,00854.7250614,E,4,12,0.50,419.082,M,47.535,M,0.0,0000*6A
$GNRMC,092609.00,A,4846.4008072,N,00854.7250651,E,0.009,,200420,,,R,V*02
$GNGGA,092609.00,4846.4008072,N,00854.7250651,E,4,12,0.50,419.086,M,47.535,M,0.0,0000*65
$GNRMC,092609.50,A,4846.4008066,N,00854.7250677,E,0.011,,200420,,,R,V*0F
$GNGGA,092609.50,4846.4008066,N,00854.7250677,E,4,12,0.50,419.085,M,47.535,M,0.0,0000*62
$GNRMC,092610.00,A,4846.4008049,N,00854.7250708,E,0.017,,200420,,,R,V*00
$GNGGA,092610.00,4846.4008049,N,00854.7250708,E,4,12,0.50,419.093,M,47.535,M,0.0,0000*6C
$GNRMC,092610.50,A,4846.4008044,N,00854.7250739,E,0.007,,200420,,,R,V*0B
$GNGGA,092610.50,4846.4008044,N,00854.7250739,E,4,12,0.50,419.097,M,47.535,M,0.0,0000*62
$GNRMC,092611.00,A,4846.4008032,N,00854.7250735,E,0.012,,200420,,,R,V*06
$GNGGA,092611.00,4846.4008032,N,00854.7250735,E,4,12,0.50,419.103,M,47.535,M,0.0,0000*67
$GNRMC,092611.50,A,4846.4008035,N,00854.7250749,E,0.015,,200420,,,R,V*08
$GNGGA,092611.50,4846.4008035,N,00854.7250749,E,4,12,0.50,419.109,M,47.535,M,0.0,0000*64
$GNRMC,092612.00,A,4846.4008033,N,00854.7250771,E,0.016,,200420,,,R,V*00
$GNGGA,092612.00,4846.4008033,N,00854.7250771,E,4,12,0.50,419.110,M,47.535,M,0.0,0000*67
$GNRMC,092612.50,A,4846.4008028,N,00854.7250788,E,0.010,,200420,,,R,V*0F
$GNGGA,092612.50,4846.4008028,N,00854.7250788,E,4,12,0.50,419.109,M,47.535,M,0.0,0000*66
$GNRMC,092613.00,A,4846.4008016,N,00854.7250800,E,0.024,,200420,,,R,V*0E
$GNGGA,092613.00,4846.4008016,N,00854.7250800,E,4,12,0.50,419.112,M,47.535,M,0.0,0000*6A
$GNRMC,092613.50,A,4846.4008002,N,00854.7250804,E,0.014,,200420,,,R,V*09
$GNGGA,092613.50,4846.4008002,N,00854.7250804,E,4,12,0.50,419.111,M,47.535,M,0.0,0000*6D
$GNRMC,092614.00,A,4846.4008007,N,00854.7250794,E,0.010,,200420,,,R,V*0C
$GNGGA,092614.00,4846.4008007,N,00854.7250794,E,4,12,0.50,419.119,M,47.535,M,0.0,0000*64
$GNRMC,092614.50,A,4846.4007990,N,00854.7250796,E,0.007,,200420,,,R,V*05
$GNGGA,092614.50,4846.4007990,N,00854.7250796,E,4,12,0.50,419.119,M,47.535,M,0.0,0000*6B
$GNRMC,092615.00,A,4846.4007977,N,00854.7250797,E,0.008,,200420,,,R,V*06
$GNGGA,092615.00,4846.4007977,N,00854.7250797,E,4,12,0.50,419.126,M,47.535,M,0.0,0000*6B
$GNRMC,092615.50,A,4846.4007977,N,00854.7250808,E,0.009,,200420,,,R,V*0B
$GNGGA,092615.50,4846.4007977,N,00854.7250808,E,4,12,0.50,419.129,M,47.535,M,0.0,0000*68
$GNRMC,092616.00,A,4846.4007967,N,00854.7250824,E,0.008,,200420,,,R,V*03
$GNGGA,092616.00,4846.4007967,N,00854.7250824,E,4,12,0.50,419.127,M,47.535,M,0.0,0000*6F
$GNRMC,092616.50,A,4846.4007948,N,00854.7250838,E,0.009,,200420,,,R,V*07
$GNGGA,092616.50,4846.4007948,N,00854.7250838,E,4,12,0.50,419.134,M,47.535,M,0.0,0000*68
$GNRMC,092617.00,A,4846.4007940,N,00854.7250871,E,0.005,,200420,,,R,V*0A
$GNGGA,092617.00,4846.4007940,N,00854.7250871,E,4,12,0.50,419.132,M,47.535,M,0.0,0000*6F
$GNRMC,092617.50,A,4846.4007937,N,00854.7250885,E,0.017,,200420,,,R,V*07
$GNGGA,092617.50,4846.4007937,N,00854.7250885,E,4,12,0.50,419.129,M,47.535,M,0.0,0000*6B
$GNRMC,092618.00,A,4846.4007930,N,00854.7250886,E,0.015,,200420,,,R,V*0B
$GNGGA,092618.00,4846.4007930,N,00854.7250886,E,4,12,0.50,419.132,M,47.535,M,0.0,0000*6F
$GNRMC,092618.50,A,4846.4007914,N,00854.7250905,E,0.015,,200420,,,R,V*02
$GNGGA,092618.50,4846.4007914,N,00854.7250905,E,4,12,0.50,419.128,M,47.535,M,0.0,0000*6D
$GNRMC,092619.00,A,4846.4007904,N,00854.7250928,E,0.012,,200420,,,R,V*0F
$GNGGA,092619.00,4846.4007904,N,00854.7250928,E,4,12,0.50,419.127,M,47.535,M,0.0,0000*68
$GNRMC,092619.50,A,4846.4007896,N,00854.7250932,E,0.015,,200420,,,R,V*0C
$GNGGA,092619.50,4846.4007896,N,00854.7250932,E,4,12,0.49,419.125,M,47.535,M,0.0,0000*66
$GNRMC,092620.00,A,4846.4007884,N,00854.7250964,E,0.011,,200420,,,R,V*07
$GNGGA,092620.00,4846.4007884,N,00854.7250964,E,4,12,0.49,419.126,M,47.535,M,0.0,0000*6A
$GNRMC,092620.50,A,4846.4007869,N,00854.7250979,E,0.013,,200420,,,R,V*0F
$GNGGA,092620.50,4846.4007869,N,00854.7250979,E,4,12,0.49,419.122,M,47.535,M,0.0,0000*64
$GNRMC,092621.00,A,4846.4007843,N,00854.7251004,E,0.010,,200420,,,R,V*02
$GNGGA,092621.00,4846.4007843,N,00854.7251004,E,4,12,0.49,419.124,M,47.535,M,0.0,0000*6C
$GNRMC,092621.50,A,4846.4007837,N,00854.7251027,E,0.013,,200420,,,R,V*06
$GNGGA,092621.50,4846.4007837,N,00854.7251027,E,4,12,0.49,419.119,M,47.535,M,0.0,0000*65
$GNRMC,092622.00,A,4846.4007820,N,00854.7251021,E,0.016,,200420,,,R,V*05
$GNGGA,092622.00,4846.4007820,N,00854.7251021,E,4,12,0.49,419.120,M,47.535,M,0.0,0000*69
$GNRMC,092622.50,A,4846.4007816,N,00854.7251013,E,0.011,,200420,,,R,V*03
$GNGGA,092622.50,4846.4007816,N,00854.7251013,E,4,12,0.49,419.118,M,47.535,M,0.0,0000*63
$GNRMC,092623.00,A,4846.4007795,N,00854.7251014,E,0.011,,200420,,,R,V*04
$GNGGA,092623.00,4846.4007795,N,00854.7251014,E,4,12,0.49,419.122,M,47.535,M,0.0,0000*6D
$GNRMC,092623.50,A,4846.4007781,N,00854.7251019,E,0.017,,200420,,,R,V*0F
$GNGGA,092623.50,4846.4007781,N,00854.7251019,E,4,12,0.49,419.123,M,47.535,M,0.0,0000*61
$GNRMC,092624.00,A,4846.4007777,N,00854.7251037,E,0.016,,200420,,,R,V*09
$GNGGA,092624.00,4846.4007777,N,00854.7251037,E,4,12,0.49,419.119,M,47.535,M,0.0,0000*6F
$GNRMC,092624.50,A,4846.4007764,N,00854.7251040,E,0.017,,200420,,,R,V*0F
$GNGGA,092624.50,4846.4007764,N,00854.7251040,E,4,12,0.49,419.120,M,47.535,M,0.0,0000*62
$GNRMC,092625.00,A,4846.4007762,N,00854.7251050,E,0.008,,200420,,,R,V*02
$GNGGA,092625.00,4846.4007762,N,00854.7251050,E,4,12,0.49,419.121,M,47.535,M,0.0,0000*60
$GNRMC,092625.50,A,4846.4007754,N,00854.7251061,E,0.013,,200420,,,R,V*0A
$GNGGA,092625.50,4846.4007754,N,00854.7251061,E,4,12,0.50,419.122,M,47.535,M,0.0,0000*69
$GNRMC,092626.00,A,4846.4007742,N,00854.7251083,E,0.013,,200420,,,R,V*07
$GNGGA,092626.00,4846.4007742,N,00854.7251083,E,4,12,0.50,419.116,M,47.535,M,0.0,0000*63
$GNRMC,092626.50,A,4846.4007722,N,00854.7251091,E,0.010,,200420,,,R,V*04
$GNGGA,092626.50,4846.4007722,N,00854.7251091,E,4,12,0.50,419.110,M,47.535,M,0.0,0000*65
$GNRMC,092627.00,A,4846.4007709,N,00854.7251094,E,0.019,,200420,,,R,V*05
$GNGGA,092627.00,4846.4007709,N,00854.7251094,E,4,12,0.50,419.110,M,47.535,M,0.0,0000*6D
$GNRMC,092627.50,A,4846.4007675,N,00854.7251109,E,0.015,,200420,,,R,V*03
$GNGGA,092627.50,4846.4007675,N,00854.7251109,E,4,12,0.50,419.110,M,47.535,M,0.0,0000*67
$GNRMC,092628.00,A,4846.4007669,N,00854.7251105,E,0.014,,200420,,,R,V*09
$GNGGA,092628.00,4846.4007669,N,00854.7251105,E,4,12,0.50,419.103,M,47.535,M,0.0,0000*6E
$GNRMC,092628.50,A,4846.4007646,N,00854.7251117,E,0.010,,200420,,,R,V*06
$GNGGA,092628.50,4846.4007646,N,00854.7251117,E,4,12,0.50,419.100,M,47.535,M,0.0,0000*66
$GNRMC,092629.00,A,4846.4007632,N,00854.7251127,E,0.016,,200420,,,R,V*04
$GNGGA,092629.00,4846.4007632,N,00854.7251127,E,4,12,0.50,419.097,M,47.535,M,0.0,0000*6D
$GNRMC,092629.50,A,4846.4007617,N,00854.7251132,E,0.013,,200420,,,R,V*07
$GNGGA,092629.50,4846.4007617,N,00854.7251132,E,4,12,0.50,419.097,M,47.535,M,0.0,0000*6B
$GNRMC,092630.00,A,4846.4007603,N,00854.7251133,E,0.021,,200420,,,R,V*0F
$GNGGA,092630.00,4846.4007603,N,00854.7251133,E,4,12,0.50,419.099,M,47.535,M,0.0,0000*6C
$GNRMC,092630.50,A,4846.4007601,N,00854.7251133,E,0.014,,200420,,,R,V*0E
$GNGGA,092630.50,4846.4007601,N,00854.7251133,E,4,12,0.50,419.100,M,47.535,M,0.0,0000*6A
$GNRMC,092631.00,A,4846.4007598,N,00854.7251112,E,0.010,,200420,,,R,V*0E
$GNGGA,092631.00,4846.4007598,N,00854.7251112,E,4,12,0.50,419.100,M,47.535,M,0.0,0000*6E
$GNRMC,092631.50,A,4846.4007574,N,00854.7251119,E,0.015,,200420,,,R,V*07
$GNGGA,092631.50,4846.4007574,N,00854.7251119,E,4,12,0.50,419.099,M,47.535,M,0.0,0000*63
$GNRMC,092632.00,A,4846.4007556,N,00854.7251100,E,0.007,,200420,,,R,V*0A
$GNGGA,092632.00,4846.4007556,N,00854.7251100,E,4,12,0.49,419.098,M,47.535,M,0.0,0000*64
$GNRMC,092632.50,A,4846.4007531,N,00854.7251109,E,0.013,,200420,,,R,V*02
$GNGGA,092632.50,4846.4007531,N,00854.7251109,E,4,12,0.51,419.091,M,47.535,M,0.0,0000*69
$GNRMC,092633.00,A,4846.4007509,N,00854.7251111,E,0.018,,200420,,,R,V*0F
$GNGGA,092633.00,4846.4007509,N,00854.7251111,E,4,12,0.51,419.089,M,47.535,M,0.0,0000*66
$GNRMC,092633.50,A,4846.4007482,N,00854.7251102,E,0.014,,200420,,,R,V*06
$GNGGA,092633.50,4846.4007482,N,00854.7251102,E,4,12,0.51,419.084,M,47.535,M,0.0,0000*6E
$GNRMC,092634.00,A,4846.4007472,N,00854.7251109,E,0.015,,200420,,,R,V*01
$GNGGA,092634.00,4846.4007472,N,00854.7251109,E,4,12,0.51,419.077,M,47.535,M,0.0,0000*64
$GNRMC,092634.50,A,4846.4007448,N,00854.7251106,E,0.018,,200420,,,R,V*0F
$GNGGA,092634.50,4846.4007448,N,00854.7251106,E,4,12,0.50,419.073,M,47.535,M,0.0,0000*62
$GNRMC,092635.00,A,4846.4007452,N,00854.7251093,E,0.013,,200420,,,R,V*06
$GNGGA,092635.00,4846.4007452,N,00854.7251093,E,4,12,0.50,419.069,M,47.535,M,0.0,0000*6B
$GNRMC,092635.50,A,4846.4007434,N,00854.7251100,E,0.018,,200420,,,R,V*03
$GNGGA,092635.50,4846.4007434,N,00854.7251100,E,4,12,0.50,419.067,M,47.535,M,0.0,0000*6B
$GNRMC,092636.00,A,4846.4007439,N,00854.7251108,E,0.018,,200420,,,R,V*00
$GNGGA,092636.00,4846.4007439,N,00854.7251108,E,4,12,0.50,419.066,M,47.535,M,0.0,0000*69
$GNRMC,092636.50,A,4846.4007430,N,00854.7251101,E,0.013,,200420,,,R,V*0E
$GNGGA,092636.50,4846.4007430,N,00854.7251101,E,4,12,0.50,419.065,M,47.535,M,0.0,0000*6F
$GNRMC,092637.00,A,4846.4007430,N,00854.7251111,E,0.007,,200420,,,R,V*0E
$GNGGA,092637.00,4846.4007430,N,00854.7251111,E,4,12,0.50,419.060,M,47.535,M,0.0,0000*6F
$GNRMC,092637.50,A,4846.4007428,N,00854.7251131,E,0.009,,200420,,,R,V*0E
$GNGGA,092637.50,4846.4007428,N,00854.7251131,E,4,12,0.50,419.054,M,47.535,M,0.0,0000*66
$GNRMC,092638.00,A,4846.4007428,N,00854.7251129,E,0.033,,200420,,,R,V*04
$GNGGA,092638.00,4846.4007428,N,00854.7251129,E,4,12,0.50,419.047,M,47.535,M,0.0,0000*67
$GNRMC,092638.50,A,4846.4007424,N,00854.7251129,E,0.012,,200420,,,R,V*0E
$GNGGA,092638.50,4846.4007424,N,00854.7251129,E,4,12,0.50,419.047,M,47.535,M,0.0,0000*6E
$GNRMC,092639.00,A,4846.4007405,N,00854.7251138,E,0.015,,200420,,,R,V*0E
$GNGGA,092639.00,4846.4007405,N,00854.7251138,E,4,12,0.50,419.044,M,47.535,M,0.0,0000*6A
$GNRMC,092639.50,A,4846.4007407,N,00854.7251136,E,0.011,,200420,,,R,V*03
$GNGGA,092639.50,4846.4007407,N,00854.7251136,E,4,12,0.50,419.038,M,47.535,M,0.0,0000*68
$GNRMC,092640.00,A,4846.4007395,N,00854.7251138,E,0.014,,200420,,,R,V*0F
$GNGGA,092640.00,4846.4007395,N,00854.7251138,E,4,12,0.50,419.033,M,47.535,M,0.0,0000*6A
$GNRMC,092640.50,A,4846.4007400,N,00854.7251143,E,0.014,,200420,,,R,V*0D
$GNGGA,092640.50,4846.4007400,N,00854.7251143,E,4,12,0.50,419.025,M,47.535,M,0.0,0000*6F
$GNRMC,092641.00,A,4846.4007400,N,00854.7251154,E,0.006,,200420,,,R,V*0C
$GNGGA,092641.00,4846.4007400,N,00854.7251154,E,4,12,0.50,419.021,M,47.535,M,0.0,0000*69
$GNRMC,092641.50,A,4846.4007406,N,00854.7251148,E,0.011,,200420,,,R,V*04
$GNGGA,092641.50,4846.4007406,N,00854.7251148,E,4,12,0.50,419.015,M,47.535,M,0.0,0000*60
